[
  {
    "lat": 48.847888794991505,
    "lon": 2.3343662711639372,
    "name": "Jardin du Luxembourg",
    "openingTimes": "Daily",
    "official": "No",
    "reportedBy": "Admin",
    "image": "https://i.imgur.com/3rci744.jpg",
    "site": "https://jardin.senat.fr/en-famille.html",
    "times": "9:00 - 23:00",
    "type": "Park",
    "city": "Paris",
    "country": "France",
    "address": "50 Rue de Vaugirard, 75006 Paris, France",
    "contact": "+33 1 42 34 20 00"
  },
  {
    "lat": 48.8510,
    "lon": 2.3333,
    "name": "Blitz Society",
    "openingTimes": "Monday, Closed / Wednesday, 2:30–11:30 / Thursday, 2:30–11:30 /  Friday, 2:30–11:30 / Saturday, 10am–11:30 / Sunday, 2:30–11:30pm",
    "official": "Yes",
    "reportedBy": "Admin",
    "image": "https://i.imgur.com/oQ9qbXP.jpg",
    "site": "https://www.blitzsociety.fr/",
    "times": "14:30 - 23:30",
    "type": "Cafe",
    "city": "Paris",
    "country": "France",
    "address": "4 Rue du Sabot, 75006 Paris, France",
    "contact": "+33 01 53 10 86 10"
  },
  {
    "lat": 48.850162276953185,
    "lon": 2.435815530688502,
    "name": "Club d'échecs de Vincennes",
    "openingTimes": "Wednesday / Saturday afternoons 2pm-7pm / Fridays 6pm-11pm / Sundays 2pm-7pm",
    "official": "Yes",
    "reportedBy": "Admin",
    "image": "",
    "site": "https://club-echecs-vincennes.fr/",
    "times": "14:00 - 18:00",
    "type": "Club",
    "city": "Vincennes",
    "country": "France",
    "address": "16 Rue Charles Pathé, 94300 Vincennes, France",
    "contact": "+33 6 85 52 86 65"
  },
  {
    "lat": 48.45511885248725,
    "lon": 1.4798359975765,
    "name": "C'Chartres Echecs",
    "openingTimes": "Monday Wednesday Saturday",
    "official": "Yes",
    "reportedBy": "Admin",
    "image": "https://i.imgur.com/txlNRmq.jpg",
    "site": "https://c-chartres-echecs.com/",
    "times": "14:00 - 19:00",
    "type": "Club",
    "city": "Chartres",
    "country": "France",
    "address": "31 rue Huysmans, Quartier Rechèvres, 28000 CHARTRES",
    "contact": "+33 6 09 15 05 84"
  },
  {
    "lat": 48.77922167522982,
    "lon": 7.845188097676309,
    "name": "Bischwiller Chess Club",
    "openingTimes": "Monday to Sunday",
    "official": "Yes",
    "reportedBy": "Admin",
    "image": "",
    "site": "https://www.bischwiller-echecs.com/",
    "times": "10:00 - 22:00",
    "type": "Club",
    "city": "Bischwiller",
    "country": "France",
    "address": "3 Rue du Stade, 67240 Bischwiller, France",
    "contact": "+33 3 88 72 34 01"
  },
  {
    "lat": 43.55645,
    "lon": 7.0174,
    "name": "Cannes Echecs",
    "openingTimes": "Monday to Sunday",
    "official": "Yes",
    "reportedBy": "Admin",
    "image": "",
    "site": "https://www.cannes-echecs.fr/",
    "times": "14:00 - 19:00",
    "type": "Club",
    "city": "Cannes",
    "country": "France",
    "address": "3 Av. du Petit Juas, 06400 Cannes, France",
    "contact": ""
  },
  {
    "lat": 40.73460914153109,
    "lon": -73.99671871534426,
    "name": "Marshall Chess Club",
    "openingTimes": "Daily",
    "official": "Yes",
    "reportedBy": "Admin",
    "image": "",
    "site": "https://www.marshallchessclub.org/",
    "times": "6pm-12am",
    "type": "Club",
    "city": "New York",
    "country": "USA",
    "address": "23 W 10th St, New York, NY 10011, United States",
    "contact": "+12124773716"
  },
  {
    "lat": 39.02988298442781,
    "lon": -90.26102089710116,
    "name": "Saint Louis Chess Club",
    "openingTimes": "Monday to Sunday",
    "official": "Yes",
    "reportedBy": "Admin",
    "image": "",
    "site": "https://saintlouischessclub.org",
    "times": "10am-8pm",
    "type": "Club",
    "city": "Saint Louis",
    "country": "USA",
    "address": "4657 Maryland Ave, St. Louis, MO 63108, USA",
    "contact": "+13143612437"
  },
  {
    "lat": 37.7881,
    "lon": -122.4014,
    "name": "Mechanics' Institute Chess Club",
    "openingTimes": "Monday to Friday",
    "official": "Yes",
    "reportedBy": "Admin",
    "image": "https://i.imgur.com/evOWGOF.jpg",
    "site": "https://www.milibrary.org/chess",
    "times": "11am-6pm",
    "type": "Club",
    "city": "San Francisco",
    "country": "USA",
    "address": "57 Post St, San Francisco, CA 94104, USA",
    "contact": ""
  },
  {
    "lat": 41.8789,
    "lon": -87.6278,
    "name": "Chicago Chess Center",
    "openingTimes": "Monday to Sunday",
    "official": "Yes",
    "reportedBy": "Admin",
    "image": "",
    "site": "https://www.chichess.org/",
    "times": "",
    "type": "Club",
    "city": "Chicago",
    "country": "USA",
    "address": "47 W. POLK STREET, SUITE G2B, Chicago, IL 60605, USA",
    "contact": "info@chichess.org"
  },
  {
    "lat": 47.7080,
    "lon": -122.3328,
    "name": "Seattle Chess Club",
    "openingTimes": "Wednesday / Friday",
    "official": "Yes",
    "reportedBy": "Admin",
    "image": "",
    "site": "https://seattlechess.club/",
    "times": "6.30pm - 12am",
    "type": "Club",
    "city": "Seattle",
    "country": "USA",
    "address": "7212 Woodlawn Ave NE, Seattle, WA 98115, United States",
    "contact": "contact@seattlechess.club"
  },
    {
    "lat": 35.365060159388584,
    "lon": -80.78681307413243,
    "name": "Charlotte Chess Center (North)",
    "openingTimes": "Monday Thursday Friday Saturday Sunday",
    "official": "Yes",
    "reportedBy": "Admin",
    "image": "",
    "site": "https://www.charlottechesscenter.org/",
    "times": "5pm-7pm",
    "type": "Club",
    "city": "Charlotte",
    "country": "USA",
    "address": "10211 Prosperity Park Drive, Ste 230 (floor 2), Charlotte, NC 28269",
    "contact": "+1980-265-1156"
  },
      {
    "lat": 35.08956566707785,
    "lon": -80.86203800297709,
    "name": "Charlotte Chess Center (Main/South)",
    "openingTimes": "Mon, Tue, Wed & Fri: 6:00pm - 9:30pm\n\nThu: Classes Only\n\nSat: Events Schedule\n\nSun: 11:30pm - 8:00pm",
    "official": "Yes",
    "reportedBy": "Admin",
    "image": "",
    "site": "https://www.charlottechesscenter.org/",
    "type": "Club",
    "city": "Charlotte",
    "country": "USA",
    "address": "10700 Kettering Drive, Ste E, Charlotte, NC 28226",
    "contact": "+1980-265-1156"
  },
        {
    "lat": 45.77380312031072,
    "lon": 4.806254297408209,
    "name": "Lyon Olympique Echecs",
    "openingTimes": "Monday 2.30-8pm / Tuesday 2.30-9pm / Wednesday 8.15am-9pm / Thursday 2.30-11pm / Saturday 9.30am-11pm / Sunday 2.30-9pm",
    "official": "Yes",
    "reportedBy": "Admin",
    "image": "",
    "site": "https://lyon-olympique-echecs.com/",
    "type": "Club",
    "city": "Lyon",
    "country": "France",
    "address": "5 Pl. du Marché, 69009 Lyon, France",
    "contact": "+33478288587"
  }
]